{"pageProps":{"global_data":[{"speciesCode":"comqua1","comName":"Common Quail","sciName":"Coturnix coturnix","locId":"L44024598","locName":"Auto selected 40.96900, 19.47329","obsDt":"2025-05-03 19:49","howMany":2,"lat":40.969003,"lng":19.473291,"obsValid":true,"obsReviewed":false,"locationPrivate":true,"subId":"S232591556"},{"speciesCode":"barswa","comName":"Barn Swallow","sciName":"Hirundo rustica","locId":"L43936070","locName":"Bou Saada, M'Sila Province, DZ (35,211, 4,184)","obsDt":"2025-05-03 08:56","howMany":2,"lat":35.2111839,"lng":4.1840815,"obsValid":true,"obsReviewed":false,"locationPrivate":true,"subId":"S232299579"},{"speciesCode":"afpswi1","comName":"African Palm Swift","sciName":"Cypsiurus parvus","locId":"L43966229","locName":"Talatona, Luanda, AO (-8.926, 13.187)","obsDt":"2025-05-03 08:07","howMany":2,"lat":-8.9259338,"lng":13.1869237,"obsValid":true,"obsReviewed":false,"locationPrivate":true,"subId":"S232298251"},{"speciesCode":"whttro","comName":"White-tailed Tropicbird","sciName":"Phaethon lepturus","locId":"L43989699","locName":"Auto selected 18.25412, -63.02182","obsDt":"2025-05-03 09:07","howMany":1,"lat":18.254122,"lng":-63.021825,"obsValid":true,"obsReviewed":false,"locationPrivate":true,"subId":"S232421622"},{"speciesCode":"anchum1","comName":"Antillean Crested Hummingbird","sciName":"Orthorhyncus cristatus","locId":"L43789847","locName":"Mamora Bay beach AG-Saint Paul (17.0165,-61.7347)","obsDt":"2025-05-03 06:53","howMany":2,"lat":17.016507,"lng":-61.734668,"obsValid":true,"obsReviewed":false,"locationPrivate":true,"subId":"S232411929"},{"speciesCode":"lesrhe2","comName":"Lesser Rhea","sciName":"Rhea pennata","locId":"L44025082","locName":"Ruta Nacional 22, Comisión de Fomento Ramón Castro AR-Neuquén -38.89393, -69.85070","obsDt":"2025-05-03 14:53","howMany":5,"lat":-38.893935,"lng":-69.850701,"obsValid":true,"obsReviewed":false,"locationPrivate":true,"subId":"S232593874"},{"speciesCode":"barswa","comName":"Barn Swallow","sciName":"Hirundo rustica","locId":"L44011860","locName":"M4, Hrazdan, Kotayk Province, AM (40,5, 44,785)","obsDt":"2025-05-03 18:17","howMany":1,"lat":40.4998341,"lng":44.7852734,"obsValid":true,"obsReviewed":false,"locationPrivate":true,"subId":"S232533446"},{"speciesCode":"baepig2","comName":"Bare-eyed Pigeon","sciName":"Patagioenas corensis","locId":"L43944560","locName":"Eagle Beach","obsDt":"2025-05-02 18:02","howMany":5,"lat":12.545172,"lng":-70.060572,"obsValid":true,"obsReviewed":false,"locationPrivate":true,"subId":"S232184773"},{"speciesCode":"auonig1","comName":"Australian Owlet-nightjar","sciName":"Aegotheles cristatus","locId":"L2541640","locName":"Chiltern-Mt Pilot National Park--Barambogie Range","obsDt":"2025-05-04 02:08","howMany":1,"lat":-36.2248,"lng":146.56503,"obsValid":true,"obsReviewed":false,"locationPrivate":false,"subId":"S232548250"},{"speciesCode":"blutit","comName":"Eurasian Blue Tit","sciName":"Cyanistes caeruleus","locId":"L44023814","locName":"Völkendorfer Straße 4A, Villach AT-Carinthia 46.61187, 13.83957","obsDt":"2025-05-03 19:38","howMany":3,"lat":46.611873,"lng":13.839572,"obsValid":true,"obsReviewed":false,"locationPrivate":true,"subId":"S232588121"},{"speciesCode":"eurbla","comName":"Eurasian Blackbird","sciName":"Turdus merula","locId":"L43965824","locName":"Baku, AZ (40,428, 49,907)","obsDt":"2025-05-03 11:48","howMany":2,"lat":40.4276911,"lng":49.9069388,"obsValid":true,"obsReviewed":false,"locationPrivate":true,"subId":"S232296345"},{"speciesCode":"magfri","comName":"Magnificent Frigatebird","sciName":"Fregata magnificens","locId":"L44004554","locName":"North end anchorage Manjack 26.83641, -77.38383","obsDt":"2025-05-03 11:06","howMany":1,"lat":26.836408,"lng":-77.383832,"obsValid":true,"obsReviewed":false,"locationPrivate":true,"subId":"S232498985"},{"speciesCode":"commyn","comName":"Common Myna","sciName":"Acridotheres tristis","locId":"L40434747","locName":"Durrat al Bahrain  Atoll 1","obsDt":"2025-05-03 18:02","howMany":4,"lat":25.848986,"lng":50.617209,"obsValid":true,"obsReviewed":false,"locationPrivate":true,"subId":"S232497063","exoticCategory":"N"},{"speciesCode":"aspswi1","comName":"Asian Palm Swift","sciName":"Cypsiurus balasiensis","locId":"L42843511","locName":"Bangladesh Wildlife Center","obsDt":"2025-05-03 18:10","howMany":5,"lat":24.062533,"lng":90.3903265,"obsValid":true,"obsReviewed":false,"locationPrivate":true,"subId":"S232400665"},{"speciesCode":"bkbplo","comName":"Black-bellied Plover","sciName":"Pluvialis squatarola","locId":"L1888700","locName":"Congo Road Private Impoundment","obsDt":"2025-05-03 07:25","howMany":10,"lat":13.1246355,"lng":-59.4605848,"obsValid":true,"obsReviewed":false,"locationPrivate":false,"subId":"S232436567"},{"speciesCode":"blutit","comName":"Eurasian Blue Tit","sciName":"Cyanistes caeruleus","locId":"L43690289","locName":"Санаторий Надзея","obsDt":"2025-05-03 19:29","howMany":1,"lat":52.1906914,"lng":24.1452325,"obsValid":true,"obsReviewed":false,"locationPrivate":true,"subId":"S232555805"},{"speciesCode":"cangoo","comName":"Canada Goose","sciName":"Branta canadensis","locId":"L44018356","locName":"53 Arsenaalstraat, Brugge, Vlaams Gewest, BE (51.201, 3.225)","obsDt":"2025-05-03 18:54","howMany":2,"lat":51.2006934,"lng":3.2252756,"obsValid":true,"obsReviewed":false,"locationPrivate":true,"subId":"S232563556","exoticCategory":"N"},{"speciesCode":"whthaw","comName":"White-tailed Hawk","sciName":"Geranoaetus albicaudatus","locId":"L1067843","locName":"Philip S. W. Goldson International Airport, Belize City","obsDt":"2025-05-03 10:08","howMany":1,"lat":17.5368004,"lng":-88.3080196,"obsValid":true,"obsReviewed":false,"locationPrivate":false,"subId":"S232540155"},{"speciesCode":"grekis","comName":"Great Kiskadee","sciName":"Pitangus sulphuratus","locId":"L2732318","locName":"S.Princess GC","obsDt":"2025-05-03 11:14","howMany":1,"lat":32.2520069,"lng":-64.8293352,"obsValid":true,"obsReviewed":false,"locationPrivate":false,"subId":"S232466317","exoticCategory":"N"},{"speciesCode":"blabul1","comName":"Black Bulbul","sciName":"Hypsipetes leucocephalus","locId":"L43992561","locName":"eco trail about the teashigang district court","obsDt":"2025-05-03 17:31","howMany":2,"lat":27.336712,"lng":91.567203,"obsValid":true,"obsReviewed":false,"locationPrivate":true,"subId":"S232437599"},{"speciesCode":"crbthr1","comName":"Creamy-bellied Thrush","sciName":"Turdus amaurochalinus","locId":"L8592709","locName":"Parque Urbano, Santa Cruz","obsDt":"2025-05-03 12:00","howMany":5,"lat":-17.7944352,"lng":-63.169298,"obsValid":true,"obsReviewed":false,"locationPrivate":false,"subId":"S232583939"},{"speciesCode":"barswa","comName":"Barn Swallow","sciName":"Hirundo rustica","locId":"L44001081","locName":"Grenzstation Bihac","obsDt":"2025-05-03 16:36","howMany":3,"lat":44.8760882,"lng":15.7622751,"obsValid":true,"obsReviewed":false,"locationPrivate":true,"subId":"S232482536"},{"speciesCode":"beawoo1","comName":"Bearded Woodpecker","sciName":"Chloropicus namaquus","locId":"L10746058","locName":"The Pottery, Notwane","obsDt":"2025-05-03 15:43","howMany":1,"lat":-24.7639601,"lng":25.8447297,"obsValid":true,"obsReviewed":false,"locationPrivate":true,"subId":"S232473092"},{"speciesCode":"chbmoc1","comName":"Chalk-browed Mockingbird","sciName":"Mimus saturninus","locId":"L39244836","locName":"Araraquara --Jd Aclimação - Pomar Comunitário","obsDt":"2025-05-03 14:37","howMany":2,"lat":-21.7591773,"lng":-48.154929,"obsValid":true,"obsReviewed":false,"locationPrivate":true,"subId":"S232588487"},{"speciesCode":"blekin1","comName":"Blue-eared Kingfisher","sciName":"Alcedo meninting","locId":"L43958378","locName":"Lagau","obsDt":"2025-05-03 10:11","howMany":1,"lat":4.6818401,"lng":115.0694285,"obsValid":true,"obsReviewed":false,"locationPrivate":true,"subId":"S232257760"},{"speciesCode":"ashdro1","comName":"Ashy Drongo","sciName":"Dicrurus leucophaeus","locId":"L920991","locName":"Angkor Wat","obsDt":"2025-05-03 18:00","howMany":1,"lat":13.4125,"lng":103.8668,"obsValid":true,"obsReviewed":false,"locationPrivate":false,"subId":"S232531221"},{"speciesCode":"greyel","comName":"Greater Yellowlegs","sciName":"Tringa melanoleuca","locId":"L2349838","locName":"Riverhead--Cootes Pond","obsDt":"2025-05-03 15:20","howMany":1,"lat":46.948065,"lng":-53.5200906,"obsValid":true,"obsReviewed":false,"locationPrivate":false,"subId":"S232591737"},{"speciesCode":"blackc1","comName":"Eurasian Blackcap","sciName":"Sylvia atricapilla","locId":"L44019237","locName":"Poilaosinho Agricultural Fields, Petra Badejo, Santiago, Cabo Verde","obsDt":"2025-05-03 15:00","howMany":5,"lat":15.129689,"lng":-23.537757,"obsValid":true,"obsReviewed":false,"locationPrivate":true,"subId":"S232567520"},{"speciesCode":"banana","comName":"Bananaquit","sciName":"Coereba flaveola","locId":"L28994606","locName":"Whitewall # 48","obsDt":"2025-05-03 11:44","howMany":1,"lat":17.473303,"lng":-62.982519,"obsValid":true,"obsReviewed":false,"locationPrivate":true,"subId":"S232532742"},{"speciesCode":"anhing","comName":"Anhinga","sciName":"Anhinga anhinga","locId":"L793745","locName":"Meagre Bay Pond IBA--Pad","obsDt":"2025-05-03 12:21","howMany":2,"lat":19.2932866,"lng":-81.2288198,"obsValid":true,"obsReviewed":false,"locationPrivate":false,"subId":"S232580519"},{"speciesCode":"affeag1","comName":"African Fish-Eagle","sciName":"Icthyophaga vocifer","locId":"L13464137","locName":"Doli Lodge, Dsanga Sanga","obsDt":"2025-05-01 13:25","howMany":1,"lat":2.9201316,"lng":16.2552392,"obsValid":true,"obsReviewed":false,"locationPrivate":false,"subId":"S231906121"},{"speciesCode":"brhgul2","comName":"Brown-hooded Gull","sciName":"Chroicocephalus maculipennis","locId":"L3142349","locName":"Caleta de Duao","obsDt":"2025-05-03 13:35","howMany":5,"lat":-34.8811784,"lng":-72.1584231,"obsValid":true,"obsReviewed":false,"locationPrivate":false,"subId":"S232589909"},{"speciesCode":"brnhao1","comName":"Brown Boobook","sciName":"Ninox scutulata","locId":"L8245010","locName":"石梯村 (Shiti Village)","obsDt":"2025-05-03 23:14","howMany":1,"lat":24.4760638,"lng":97.5843317,"obsValid":true,"obsReviewed":false,"locationPrivate":false,"subId":"S232503963"},{"speciesCode":"redjun","comName":"Red Junglefowl","sciName":"Gallus gallus","locId":"L5111983","locName":"Oceania House (Home Island)","obsDt":"2025-05-01 08:43","howMany":7,"lat":-12.1205679,"lng":96.8945985,"obsValid":true,"obsReviewed":false,"locationPrivate":false,"subId":"S232226004","exoticCategory":"N"},{"speciesCode":"banana","comName":"Bananaquit","sciName":"Coereba flaveola","locId":"L42145859","locName":"# 7-20 Calle 16A, Chinchiná, Caldas, CO (4.986, -75.61)","obsDt":"2025-05-03 12:28","howMany":1,"lat":4.9856506,"lng":-75.6097247,"obsValid":true,"obsReviewed":false,"locationPrivate":true,"subId":"S232582719"},{"speciesCode":"rettro","comName":"Red-tailed Tropicbird","sciName":"Phaethon rubricauda","locId":"L43790957","locName":"South Pacific A1","obsDt":"2025-04-30 09:01","howMany":1,"lat":-18.4555018,"lng":-166.2995538,"obsValid":true,"obsReviewed":false,"locationPrivate":true,"subId":"S231334303"},{"speciesCode":"blkvul","comName":"Black Vulture","sciName":"Coragyps atratus","locId":"L43927892","locName":"Batán, Limón, CR (10,215, -83,274)","obsDt":"2025-05-03 11:44","howMany":1,"lat":10.2146345,"lng":-83.2741229,"obsValid":true,"obsReviewed":false,"locationPrivate":true,"subId":"S232590751"},{"speciesCode":"barswa","comName":"Barn Swallow","sciName":"Hirundo rustica","locId":"L27296900","locName":"Abidjan, Abidjan Autonomous District, CI (5,345, -3,991)","obsDt":"2025-05-03 09:20","howMany":3,"lat":5.3449657,"lng":-3.9905542,"obsValid":true,"obsReviewed":false,"locationPrivate":true,"subId":"S232431123"},{"speciesCode":"eurser1","comName":"European Serin","sciName":"Serinus serinus","locId":"L44018025","locName":"Dugopolje, Splitsko-dalmatinska županija, HR (43,595, 16,572)","obsDt":"2025-05-03 18:52","howMany":1,"lat":43.5952872,"lng":16.5722265,"obsValid":true,"obsReviewed":false,"locationPrivate":true,"subId":"S232562005"},{"speciesCode":"shicow","comName":"Shiny Cowbird","sciName":"Molothrus bonariensis","locId":"L25993518","locName":"Parque de los Mártires - Media Luna","obsDt":"2025-05-03 11:54","howMany":2,"lat":20.1471975,"lng":-77.436106,"obsValid":true,"obsReviewed":false,"locationPrivate":true,"subId":"S232528219"},{"speciesCode":"banana","comName":"Bananaquit","sciName":"Coereba flaveola","locId":"L44018929","locName":"4B Heerenstraat, Willemstad, CW (12.106, -68.934)","obsDt":"2025-05-03 09:57","howMany":5,"lat":12.1055944,"lng":-68.9341211,"obsValid":true,"obsReviewed":false,"locationPrivate":true,"subId":"S232566162"},{"speciesCode":"rebshr1","comName":"Red-backed Shrike","sciName":"Lanius collurio","locId":"L36329266","locName":"Nicosia - Strovolos - Stavrou","obsDt":"2025-05-03 17:30","howMany":1,"lat":35.1352971,"lng":33.3720308,"obsValid":true,"obsReviewed":false,"locationPrivate":true,"subId":"S232529292"},{"speciesCode":"blackc1","comName":"Eurasian Blackcap","sciName":"Sylvia atricapilla","locId":"L19873146","locName":"Sønderbækparken, Fruering","obsDt":"2025-05-03 19:27","howMany":1,"lat":56.0334109,"lng":9.982202,"obsValid":true,"obsReviewed":false,"locationPrivate":true,"subId":"S232590047"},{"speciesCode":"abdsto1","comName":"Abdim's Stork","sciName":"Ciconia abdimii","locId":"L43725576","locName":"National Road 3, Djibouti DJ-Djibouti (11.5675,43.1214)","obsDt":"2025-04-29 14:40","howMany":3,"lat":11.567476,"lng":43.121401,"obsValid":true,"obsReviewed":false,"locationPrivate":true,"subId":"S230954588"},{"speciesCode":"cinwre1","comName":"Kalinago Wren","sciName":"Troglodytes martinicensis","locId":"L43554412","locName":"Unnamed Road, Saint Patrick Parish, DM (15,343, -61,249)","obsDt":"2025-04-29 17:21","howMany":1,"lat":15.3431521,"lng":-61.248947,"obsValid":true,"obsReviewed":false,"locationPrivate":true,"subId":"S230985558"},{"speciesCode":"amekes","comName":"American Kestrel","sciName":"Falco sparverius","locId":"L43766700","locName":"Manglar, Bávaro, Punta Cana DO-La Altagracia (18.7053,-68.4465)","obsDt":"2025-05-03 09:01","howMany":1,"lat":18.705291,"lng":-68.446538,"obsValid":true,"obsReviewed":false,"locationPrivate":true,"subId":"S232481485"},{"speciesCode":"abythr1","comName":"Abyssinian Thrush","sciName":"Turdus abyssinicus","locId":"L43974807","locName":"Mukanoga, Kamembe, Rusizi (-2.535, 28.821)","obsDt":"2025-05-03 11:19","howMany":1,"lat":-2.5345003,"lng":28.8206564,"obsValid":true,"obsReviewed":false,"locationPrivate":true,"subId":"S232333950"},{"speciesCode":"baifly1","comName":"Baird's Flycatcher","sciName":"Myiodynastes bairdii","locId":"L27408709","locName":"Cancha De Golf Montecristi","obsDt":"2025-05-03 12:53","howMany":1,"lat":-1.022451,"lng":-80.6574663,"obsValid":true,"obsReviewed":false,"locationPrivate":true,"subId":"S232594331"},{"speciesCode":"banswa","comName":"Bank Swallow","sciName":"Riparia riparia","locId":"L44003418","locName":"Auto selected 29.99802, 31.22856","obsDt":"2025-05-03 17:56","howMany":1,"lat":29.998016,"lng":31.228561,"obsValid":true,"obsReviewed":false,"locationPrivate":true,"subId":"S232493886"},{"speciesCode":"altori","comName":"Altamira Oriole","sciName":"Icterus gularis","locId":"L14808810","locName":"Calle Cypactly, San Salvador, San Salvador, SV (13.712, -89.178)","obsDt":"2025-05-03 09:02","howMany":1,"lat":13.7122909,"lng":-89.1781501,"obsValid":true,"obsReviewed":false,"locationPrivate":true,"subId":"S232500740"},{"speciesCode":"comcuc","comName":"Common Cuckoo","sciName":"Cuculus canorus","locId":"L42239793","locName":"Raistiko Puhketalu, Punaküla, Viljandi maakond","obsDt":"2025-05-03 19:22","howMany":2,"lat":58.318,"lng":25.334,"obsValid":true,"obsReviewed":false,"locationPrivate":true,"subId":"S232544917"},{"speciesCode":"afrsto1","comName":"African Stonechat","sciName":"Saxicola torquatus","locId":"L6864135","locName":"Malolotja Nature Reserve","obsDt":"2025-05-02 08:53","howMany":1,"lat":-26.1203941,"lng":31.1062603,"obsValid":true,"obsReviewed":false,"locationPrivate":false,"subId":"S232270532"},{"speciesCode":"afrsto1","comName":"African Stonechat","sciName":"Saxicola torquatus","locId":"L43985622","locName":"Addis Ababa - Bahir Dar Road, Sululta ET-Oromia 9.42008, 38.84769","obsDt":"2025-05-03 15:16","howMany":1,"lat":9.42008,"lng":38.84769,"obsValid":true,"obsReviewed":false,"locationPrivate":true,"subId":"S232396932"},{"speciesCode":"angpet1","comName":"Southern Giant-Petrel","sciName":"Macronectes giganteus","locId":"L638505","locName":"Sea Lion Island","obsDt":"2025-05-03 11:44","howMany":7,"lat":-52.4291281,"lng":-59.0921545,"obsValid":true,"obsReviewed":false,"locationPrivate":false,"subId":"S232531366"},{"speciesCode":"bklkit","comName":"Black-legged Kittiwake","sciName":"Rissa tridactyla","locId":"L44018207","locName":"Auto selected 62.48953, -6.89199","obsDt":"2025-05-03 17:46","howMany":8,"lat":62.48953,"lng":-6.891988,"obsValid":true,"obsReviewed":false,"locationPrivate":true,"subId":"S232562873"},{"speciesCode":"collor1","comName":"Collared Lory","sciName":"Vini solitaria","locId":"L43967775","locName":"Central Division, FJ (-18,057, 178,459)","obsDt":"2025-05-03 15:12","howMany":3,"lat":-18.0570299,"lng":178.4588614,"obsValid":true,"obsReviewed":false,"locationPrivate":true,"subId":"S232304882"},{"speciesCode":"eurrob1","comName":"European Robin","sciName":"Erithacus rubecula","locId":"L13076911","locName":"Nikkarinmäki","obsDt":"2025-05-03 20:55","howMany":1,"lat":60.4665622,"lng":24.8329599,"obsValid":true,"obsReviewed":false,"locationPrivate":true,"subId":"S232594710"},{"speciesCode":"comswi","comName":"Common Swift","sciName":"Apus apus","locId":"L44024862","locName":"Promenade des Anglais, Nice FR-Provence-Alpes-Côte d'Azur (43.6936,7.2789)","obsDt":"2025-05-03 19:51","howMany":10,"lat":43.693559,"lng":7.278923,"obsValid":true,"obsReviewed":false,"locationPrivate":true,"subId":"S232592880"},{"speciesCode":"aswant1","comName":"Ash-winged Antwren","sciName":"Euchrepomis spodioptila","locId":"L10381010","locName":"Circuit Roche Bateau","obsDt":"2025-05-01 13:29","howMany":1,"lat":3.5947889,"lng":-53.1839694,"obsValid":true,"obsReviewed":false,"locationPrivate":false,"subId":"S231721789"},{"speciesCode":"brnnod","comName":"Brown Noddy","sciName":"Anous stolidus","locId":"L919888","locName":"Tahiti to Moorea ferry","obsDt":"2025-05-01 16:01","howMany":10,"lat":-17.5510812,"lng":-149.690094,"obsValid":true,"obsReviewed":false,"locationPrivate":false,"subId":"S231827784"},{"speciesCode":"afhhaw1","comName":"African Harrier-Hawk","sciName":"Polyboroides typus","locId":"L43815070","locName":"Auto selected -1.22351, 10.58863","obsDt":"2025-05-01 09:55","howMany":1,"lat":-1.223506,"lng":10.58863,"obsValid":true,"obsReviewed":false,"locationPrivate":true,"subId":"S231471069"},{"speciesCode":"comnig1","comName":"Common Nightingale","sciName":"Luscinia megarhynchos","locId":"L44025083","locName":"Hotel Ragnar 41.69103, 44.98519","obsDt":"2025-05-03 21:54","howMany":1,"lat":41.691035,"lng":44.985194,"obsValid":true,"obsReviewed":false,"locationPrivate":true,"subId":"S232593877"},{"speciesCode":"comcuc","comName":"Common Cuckoo","sciName":"Cuculus canorus","locId":"L15214238","locName":"Petershof Transect","obsDt":"2025-05-03 19:54","howMany":1,"lat":54.1564757,"lng":12.5569677,"obsValid":true,"obsReviewed":false,"locationPrivate":true,"subId":"S232594097"},{"speciesCode":"combul2","comName":"Common Bulbul","sciName":"Pycnonotus barbatus","locId":"L42881851","locName":"15 Agostinho Neto Road, Accra, Greater Accra Region, GH (5.608, -0.178)","obsDt":"2025-05-03 07:15","howMany":2,"lat":5.6080862,"lng":-0.1778118,"obsValid":true,"obsReviewed":false,"locationPrivate":true,"subId":"S232291525"},{"speciesCode":"blasto1","comName":"Black Stork","sciName":"Ciconia nigra","locId":"L22102670","locName":"Gibraltar, GI (36.123, -5.344) Spur Battery","obsDt":"2025-05-03 11:38","howMany":1,"lat":36.1226763,"lng":-5.3436654,"obsValid":true,"obsReviewed":false,"locationPrivate":true,"subId":"S232381277"},{"speciesCode":"barswa","comName":"Barn Swallow","sciName":"Hirundo rustica","locId":"L44024444","locName":"Agnantio Hotel & Spa","obsDt":"2025-05-03 20:02","howMany":10,"lat":41.2452961,"lng":23.3887323,"obsValid":true,"obsReviewed":false,"locationPrivate":true,"subId":"S232590834"},{"speciesCode":"comeid","comName":"Common Eider","sciName":"Somateria mollissima","locId":"L10183487","locName":"Kolonihavnen/Nuutoqaq","obsDt":"2025-04-29 09:00","howMany":65,"lat":64.177977,"lng":-51.747247,"obsValid":true,"obsReviewed":false,"locationPrivate":false,"subId":"S230767541"},{"speciesCode":"anchum1","comName":"Antillean Crested Hummingbird","sciName":"Orthorhyncus cristatus","locId":"L597035","locName":"Mt Hartman NP--Grenada Dove Trail","obsDt":"2025-05-03 08:26","howMany":2,"lat":12.0138007,"lng":-61.7462111,"obsValid":true,"obsReviewed":false,"locationPrivate":false,"subId":"S232400944"},{"speciesCode":"bcnher","comName":"Black-crowned Night Heron","sciName":"Nycticorax nycticorax","locId":"L891660","locName":"Barrage de Gaschet","obsDt":"2025-05-03 09:28","howMany":2,"lat":16.4197021,"lng":-61.4812946,"obsValid":true,"obsReviewed":false,"locationPrivate":false,"subId":"S232499602"},{"speciesCode":"blknod","comName":"Black Noddy","sciName":"Anous minutus","locId":"L2418033","locName":"Cocos Island","obsDt":"2025-05-03 16:20","howMany":300,"lat":13.2375643,"lng":144.6515107,"obsValid":true,"obsReviewed":false,"locationPrivate":false,"subId":"S232281446"},{"speciesCode":"bobfly1","comName":"Boat-billed Flycatcher","sciName":"Megarynchus pitangua","locId":"L1353333","locName":"RNP Los Tarrales--sendero La Rinconada","obsDt":"2025-05-03 09:51","howMany":1,"lat":14.5251539,"lng":-91.1420054,"obsValid":true,"obsReviewed":false,"locationPrivate":false,"subId":"S232596268"},{"speciesCode":"barswa","comName":"Barn Swallow","sciName":"Hirundo rustica","locId":"L6703886","locName":"Jaonneuse","obsDt":"2025-05-02 14:12","howMany":3,"lat":49.507176,"lng":-2.5348892,"obsValid":true,"obsReviewed":false,"locationPrivate":false,"subId":"S231967207"},{"speciesCode":"grewoo2","comName":"Green Woodhoopoe","sciName":"Phoeniculus purpureus","locId":"L43775462","locName":"Bissau Área Geral","obsDt":"2025-05-02 11:00","howMany":9,"lat":11.8651259,"lng":-15.5840928,"obsValid":true,"obsReviewed":false,"locationPrivate":true,"subId":"S232202662"},{"speciesCode":"bcnher","comName":"Black-crowned Night Heron","sciName":"Nycticorax nycticorax","locId":"L44023182","locName":"Dermerara-Mahaica GY-Dermerara-Mahaica (6.7697,-57.9871)","obsDt":"2025-05-03 12:50","howMany":1,"lat":6.769679,"lng":-57.987093,"obsValid":true,"obsReviewed":false,"locationPrivate":true,"subId":"S232585305"},{"speciesCode":"banana","comName":"Bananaquit","sciName":"Coereba flaveola","locId":"L43828203","locName":"Deep River Mission GH","obsDt":"2025-05-01 08:30","howMany":2,"lat":19.728617,"lng":-72.166679,"obsValid":true,"obsReviewed":false,"locationPrivate":true,"subId":"S231545895"},{"speciesCode":"bulpet","comName":"Bulwer's Petrel","sciName":"Bulweria bulwerii","locId":"L44020102","locName":"Pacific Crossing 8","obsDt":"2025-05-03 07:47","howMany":1,"lat":35.792154,"lng":-144.244283,"obsValid":true,"obsReviewed":false,"locationPrivate":true,"subId":"S232571430"},{"speciesCode":"rtlhum","comName":"Rufous-tailed Hummingbird","sciName":"Amazilia tzacatl","locId":"L44017485","locName":"Trujillo, Colón","obsDt":"2025-05-03 10:44","howMany":1,"lat":15.918484,"lng":-85.96456,"obsValid":true,"obsReviewed":false,"locationPrivate":true,"subId":"S232559437"},{"speciesCode":"lescuc1","comName":"Lesser Cuckoo","sciName":"Cuculus poliocephalus","locId":"L4450258","locName":"Tai Po Kau Headland","obsDt":"2025-05-03 22:33","howMany":1,"lat":22.4349103,"lng":114.1921628,"obsValid":true,"obsReviewed":false,"locationPrivate":true,"subId":"S232479831"},{"speciesCode":"syrwoo1","comName":"Syrian Woodpecker","sciName":"Dendrocopos syriacus","locId":"L44023244","locName":"10 Szendrey Júlia utca, Pécs, HU (46,074, 18,22)","obsDt":"2025-05-03 19:39","howMany":1,"lat":46.0736052,"lng":18.2197735,"obsValid":true,"obsReviewed":false,"locationPrivate":true,"subId":"S232585596"},{"speciesCode":"comrav","comName":"Common Raven","sciName":"Corvus corax","locId":"L44024124","locName":"Þjóðvegur, Múlaþing, IS (65.333, -15.078)","obsDt":"2025-05-03 17:43","howMany":1,"lat":65.3329974,"lng":-15.078334,"obsValid":true,"obsReviewed":false,"locationPrivate":true,"subId":"S232589458"},{"speciesCode":"alepar2","comName":"Alexandrine Parakeet","sciName":"Psittacula eupatria","locId":"L44021947","locName":"Bengaluru, Karnataka, IN (13.009, 77.735)","obsDt":"2025-05-03 22:50","howMany":1,"lat":13.0090495,"lng":77.7346715,"obsValid":true,"obsReviewed":false,"locationPrivate":true,"subId":"S232579273"},{"speciesCode":"latnig2","comName":"Large-tailed Nightjar","sciName":"Caprimulgus macrurus","locId":"L37604859","locName":"Palm Springs, Cikarang","obsDt":"2025-05-03 20:56","howMany":4,"lat":-6.3305288,"lng":107.150597,"obsValid":true,"obsReviewed":false,"locationPrivate":true,"subId":"S232498025"},{"speciesCode":"categr1","comName":"Western Cattle-Egret","sciName":"Ardea ibis","locId":"L44002671","locName":"استاد حسن بنا","obsDt":"2025-05-03 18:18","howMany":8,"lat":35.7580725,"lng":51.4790015,"obsValid":true,"obsReviewed":false,"locationPrivate":true,"subId":"S232490201"},{"speciesCode":"barswa","comName":"Barn Swallow","sciName":"Hirundo rustica","locId":"L43566126","locName":"Pumb Station,Alexandria, Babylon Governorate, IQ (32.899, 44.361)","obsDt":"2025-04-29 18:09","howMany":16,"lat":32.8989969,"lng":44.3607698,"obsValid":true,"obsReviewed":false,"locationPrivate":true,"subId":"S230851191"},{"speciesCode":"comcuc","comName":"Common Cuckoo","sciName":"Cuculus canorus","locId":"L34293425","locName":"Unnamed Road, County Leitrim, IE (53.965, -7.985)","obsDt":"2025-05-03 18:51","howMany":1,"lat":53.9647157,"lng":-7.9849206,"obsValid":true,"obsReviewed":false,"locationPrivate":true,"subId":"S232593801"},{"speciesCode":"barwar1","comName":"Barred Warbler","sciName":"Curruca nisoria","locId":"L31081498","locName":"חורשת איקליפטוסים של שושנה דמארי","obsDt":"2025-05-03 18:41","howMany":1,"lat":32.0090718,"lng":34.7767103,"obsValid":true,"obsReviewed":false,"locationPrivate":true,"subId":"S232525117"},{"speciesCode":"blawoo1","comName":"Black Woodpecker","sciName":"Dryocopus martius","locId":"L44022143","locName":"Strada Senatore Ernesto Marsaglia 381, Sanremo IT-Liguria (43.8489,7.7380)","obsDt":"2025-05-03 19:27","howMany":1,"lat":43.848908,"lng":7.737956,"obsValid":true,"obsReviewed":false,"locationPrivate":true,"subId":"S232580285"},{"speciesCode":"amekes","comName":"American Kestrel","sciName":"Falco sparverius","locId":"L16778463","locName":"Hope Botanical Garden and Zoo, Kingston JM-Surrey County 18.02258, -76.74859","obsDt":"2025-05-03 08:21","howMany":1,"lat":18.022576,"lng":-76.748585,"obsValid":true,"obsReviewed":false,"locationPrivate":true,"subId":"S232486682"},{"speciesCode":"asbfly","comName":"Asian Brown Flycatcher","sciName":"Muscicapa dauurica","locId":"L2184905","locName":"酒田市--飛島 (Sakata--Tobishima (island))","obsDt":"2025-05-03 20:35","howMany":1,"lat":39.1960248,"lng":139.5507793,"obsValid":true,"obsReviewed":false,"locationPrivate":false,"subId":"S232395975"},{"speciesCode":"blutit","comName":"Eurasian Blue Tit","sciName":"Cyanistes caeruleus","locId":"L30420399","locName":"St Mary","obsDt":"2025-05-03 13:55","howMany":1,"lat":49.234585,"lng":-2.1764097,"obsValid":true,"obsReviewed":false,"locationPrivate":true,"subId":"S232437611"},{"speciesCode":"whiwag","comName":"White Wagtail","sciName":"Motacilla alba","locId":"L949387","locName":"Jerash--Sayl highway crossing","obsDt":"2025-05-03 15:16","howMany":1,"lat":32.2155606,"lng":35.8839011,"obsValid":true,"obsReviewed":false,"locationPrivate":false,"subId":"S232390302"},{"speciesCode":"demcra1","comName":"Demoiselle Crane","sciName":"Anthropoides virgo","locId":"L44008589","locName":"Ақмола облысы, KZ (51,433, 73,407)","obsDt":"2025-05-03 16:23","howMany":2,"lat":51.4329467,"lng":73.4066033,"obsValid":true,"obsReviewed":false,"locationPrivate":true,"subId":"S232518117"},{"speciesCode":"malkin1","comName":"Malachite Kingfisher","sciName":"Corythornis cristatus","locId":"L42460994","locName":"Mbaruk Road, Gilgil KE-Nakuru -0.32838, 36.17774","obsDt":"2025-05-03 18:05","howMany":1,"lat":-0.328376,"lng":36.177738,"obsValid":true,"obsReviewed":false,"locationPrivate":true,"subId":"S232497546"},{"speciesCode":"barswa","comName":"Barn Swallow","sciName":"Hirundo rustica","locId":"L2376494","locName":"Al Jahra Reserve (Restricted access)(محمية الجهراء)","obsDt":"2025-05-03 14:17","howMany":10,"lat":29.3619798,"lng":47.6931953,"obsValid":true,"obsReviewed":false,"locationPrivate":false,"subId":"S232472998"},{"speciesCode":"comnig1","comName":"Common Nightingale","sciName":"Luscinia megarhynchos","locId":"L44019944","locName":"Бишкек, Бишкек KG-Бишкек (42.8305,74.6088)","obsDt":"2025-05-03 23:07","howMany":1,"lat":42.83051,"lng":74.608827,"obsValid":true,"obsReviewed":false,"locationPrivate":true,"subId":"S232570691"},{"speciesCode":"bcnher","comName":"Black-crowned Night Heron","sciName":"Nycticorax nycticorax","locId":"L28508776","locName":"Nonseng Janh","obsDt":"2025-05-03 18:29","howMany":5,"lat":18.0781562,"lng":102.6189293,"obsValid":true,"obsReviewed":false,"locationPrivate":true,"subId":"S232360288"},{"speciesCode":"blackc1","comName":"Eurasian Blackcap","sciName":"Sylvia atricapilla","locId":"L40634770","locName":"Biķernieku forest","obsDt":"2025-05-03 19:04","howMany":7,"lat":56.9676731,"lng":24.2108276,"obsValid":true,"obsReviewed":false,"locationPrivate":true,"subId":"S232580633"},{"speciesCode":"blackc1","comName":"Eurasian Blackcap","sciName":"Sylvia atricapilla","locId":"L1271520","locName":"Beirut--Sabtieh, Middle East University","obsDt":"2025-05-03 06:33","howMany":1,"lat":33.8742103,"lng":35.5675721,"obsValid":true,"obsReviewed":false,"locationPrivate":false,"subId":"S232264841"},{"speciesCode":"balibi1","comName":"Southern Bald Ibis","sciName":"Geronticus calvus","locId":"L9525119","locName":"Black Mountains--East","obsDt":"2025-05-02 10:34","howMany":27,"lat":-29.5322132,"lng":29.2103615,"obsValid":true,"obsReviewed":false,"locationPrivate":false,"subId":"S232008780"},{"speciesCode":"brbrol1","comName":"Broad-billed Roller","sciName":"Eurystomus glaucurus","locId":"L35526739","locName":"City Hall","obsDt":"2025-04-30 13:52","howMany":2,"lat":6.2693405,"lng":-10.6970505,"obsValid":true,"obsReviewed":false,"locationPrivate":true,"subId":"S231174883"},{"speciesCode":"blackc1","comName":"Eurasian Blackcap","sciName":"Sylvia atricapilla","locId":"L35921243","locName":"Tripoli House","obsDt":"2025-05-03 06:45","howMany":1,"lat":32.862569,"lng":13.250691,"obsValid":true,"obsReviewed":false,"locationPrivate":true,"subId":"S232267721"},{"speciesCode":"blackc1","comName":"Eurasian Blackcap","sciName":"Sylvia atricapilla","locId":"L5976960","locName":"Vaduz (dorf/town)","obsDt":"2025-05-02 13:50","howMany":2,"lat":47.1408985,"lng":9.5209193,"obsValid":true,"obsReviewed":false,"locationPrivate":false,"subId":"S232125509"},{"speciesCode":"comgol","comName":"Common Goldeneye","sciName":"Bucephala clangula","locId":"L14634126","locName":"Alka Polder (Alkos Polderis)","obsDt":"2025-05-03 19:36","howMany":1,"lat":55.4382263,"lng":21.3721427,"obsValid":true,"obsReviewed":false,"locationPrivate":false,"subId":"S232563566"},{"speciesCode":"cangoo","comName":"Canada Goose","sciName":"Branta canadensis","locId":"L23488362","locName":"Haff Réimech","obsDt":"2025-05-03 19:39","howMany":2,"lat":49.496744,"lng":6.360141,"obsValid":true,"obsReviewed":false,"locationPrivate":false,"subId":"S232590470","exoticCategory":"N"},{"speciesCode":"asikoe2","comName":"Asian Koel","sciName":"Eudynamys scolopaceus","locId":"L17606006","locName":"Zonas Ecológicas do Cotai-II 路氹城生態保護區-二區","obsDt":"2025-05-03 17:30","howMany":1,"lat":22.1412247,"lng":113.5514121,"obsValid":true,"obsReviewed":false,"locationPrivate":false,"subId":"S232380802"},{"speciesCode":"plamar3","comName":"Madagascar Martin","sciName":"Riparia cowani","locId":"L44004580","locName":"Manjarano Lodge (-18.8953,48.4317)","obsDt":"2025-05-03 18:06","howMany":3,"lat":-18.895321,"lng":48.431661,"obsValid":true,"obsReviewed":false,"locationPrivate":true,"subId":"S232499142"},{"speciesCode":"olwbul1","comName":"Olive-winged Bulbul","sciName":"Pycnonotus plumosus","locId":"L4353562","locName":"Sepilok Jungle Resort","obsDt":"2025-05-03 20:33","howMany":1,"lat":5.8657284,"lng":117.951428,"obsValid":true,"obsReviewed":false,"locationPrivate":false,"subId":"S232397746"},{"speciesCode":"asikoe2","comName":"Asian Koel","sciName":"Eudynamys scolopaceus","locId":"L43610950","locName":"Hadahaa","obsDt":"2025-05-03 06:57","howMany":2,"lat":0.504637,"lng":73.454192,"obsValid":true,"obsReviewed":false,"locationPrivate":true,"subId":"S232285800"},{"speciesCode":"abyrol2","comName":"Abyssinian Roller","sciName":"Coracias abyssinicus","locId":"L43963577","locName":"Badalabougou Est, Bamako, Bamako Capital District, ML (12.623, -7.986)","obsDt":"2025-05-03 06:02","howMany":2,"lat":12.6229872,"lng":-7.986368,"obsValid":true,"obsReviewed":false,"locationPrivate":true,"subId":"S232285474"},{"speciesCode":"rocpig","comName":"Rock Pigeon","sciName":"Columba livia","locId":"L43994006","locName":"Triq Santa Katerina, Ħal Għargħur, MT (35.918, 14.455)","obsDt":"2025-05-03 09:45","howMany":2,"lat":35.9184783,"lng":14.4545231,"obsValid":true,"obsReviewed":false,"locationPrivate":true,"subId":"S232445224","exoticCategory":"N"},{"speciesCode":"eutspa","comName":"Eurasian Tree Sparrow","sciName":"Passer montanus","locId":"L43879108","locName":"Kwajalein Atoll, MH","obsDt":"2025-04-30 06:30","howMany":2,"lat":8.7367412,"lng":167.7355604,"obsValid":true,"obsReviewed":false,"locationPrivate":true,"subId":"S231823709","exoticCategory":"N"},{"speciesCode":"magfri","comName":"Magnificent Frigatebird","sciName":"Fregata magnificens","locId":"L44021405","locName":"Auto selected 14.43623, -60.83030","obsDt":"2025-05-03 13:19","howMany":4,"lat":14.436226,"lng":-60.830298,"obsValid":true,"obsReviewed":false,"locationPrivate":true,"subId":"S232577011"},{"speciesCode":"bkbplo","comName":"Black-bellied Plover","sciName":"Pluvialis squatarola","locId":"L43719175","locName":"Nouamghar, Dakhlet Nouadhibou, MR (19,385, -16,535)","obsDt":"2025-04-29 15:55","howMany":65,"lat":19.3853948,"lng":-16.5349049,"obsValid":true,"obsReviewed":false,"locationPrivate":true,"subId":"S230918953"},{"speciesCode":"commyn","comName":"Common Myna","sciName":"Acridotheres tristis","locId":"L43982154","locName":"Auto selected -20.43960, 57.36571 Chamarel Chalets","obsDt":"2025-05-03 15:38","howMany":2,"lat":-20.439599,"lng":57.365711,"obsValid":true,"obsReviewed":false,"locationPrivate":true,"subId":"S232375779","exoticCategory":"N"},{"speciesCode":"turvul","comName":"Turkey Vulture","sciName":"Cathartes aura","locId":"L44025488","locName":"zCoahuila, MX (29.263, -100.853)","obsDt":"2025-05-03 12:57","howMany":1,"lat":29.2630846,"lng":-100.8525221,"obsValid":true,"obsReviewed":false,"locationPrivate":true,"subId":"S232595678"},{"speciesCode":"barswa","comName":"Barn Swallow","sciName":"Hirundo rustica","locId":"L8126382","locName":"Trebujenio-Furceni birding trail","obsDt":"2025-05-03 07:53","howMany":3,"lat":47.332917,"lng":28.9713609,"obsValid":true,"obsReviewed":false,"locationPrivate":false,"subId":"S232311384"},{"speciesCode":"blackc1","comName":"Eurasian Blackcap","sciName":"Sylvia atricapilla","locId":"L1000282","locName":"Monaco--Monte Carlo","obsDt":"2025-05-02 08:35","howMany":8,"lat":43.7401609,"lng":7.4283999,"obsValid":true,"obsReviewed":false,"locationPrivate":false,"subId":"S231872602"},{"speciesCode":"comcha","comName":"Common Chaffinch","sciName":"Fringilla coelebs","locId":"L9658302","locName":"MN-Ömnögovi (43.5745,104.4317)","obsDt":"2025-05-03 16:38","howMany":3,"lat":43.574502,"lng":104.431694,"obsValid":true,"obsReviewed":false,"locationPrivate":true,"subId":"S232307877"},{"speciesCode":"eurwry","comName":"Eurasian Wryneck","sciName":"Jynx torquilla","locId":"L14135856","locName":"Igraliste Kraljevska Plaza-Bar","obsDt":"2025-05-03 18:52","howMany":1,"lat":42.102739,"lng":19.0891084,"obsValid":true,"obsReviewed":false,"locationPrivate":false,"subId":"S232562492"},{"speciesCode":"amekes","comName":"American Kestrel","sciName":"Falco sparverius","locId":"L43910303","locName":"Marguerita Hill, Saint Peter Parish, MS (16.8, -62.183)","obsDt":"2025-05-02 10:06","howMany":1,"lat":16.8004042,"lng":-62.1829203,"obsValid":true,"obsReviewed":false,"locationPrivate":true,"subId":"S232001686"},{"speciesCode":"audgul1","comName":"Audouin's Gull","sciName":"Ichthyaetus audouinii","locId":"L2031754","locName":"مصب واد سوس | Embouchure du Oued Souss","obsDt":"2025-05-03 17:47","howMany":1,"lat":30.3623594,"lng":-9.5867729,"obsValid":true,"obsReviewed":false,"locationPrivate":false,"subId":"S232586082"},{"speciesCode":"afpswi1","comName":"African Palm Swift","sciName":"Cypsiurus parvus","locId":"L16154215","locName":"Costa do Sol","obsDt":"2025-05-03 16:03","howMany":7,"lat":-25.9123205,"lng":32.6483736,"obsValid":true,"obsReviewed":false,"locationPrivate":false,"subId":"S232535611"},{"speciesCode":"asgwea2","comName":"Asian Golden Weaver","sciName":"Ploceus hypoxanthus","locId":"L43807006","locName":"Agalatpan, Shwelaung","obsDt":"2025-05-01 07:48","howMany":86,"lat":16.7496967,"lng":95.3012805,"obsValid":true,"obsReviewed":false,"locationPrivate":true,"subId":"S231431769"},{"speciesCode":"spoowl1","comName":"Spotted Owlet","sciName":"Athene brama","locId":"L44001618","locName":"Auto selected 27.55846, 84.08776","obsDt":"2025-05-03 19:07","howMany":1,"lat":27.558459,"lng":84.087759,"obsValid":true,"obsReviewed":false,"locationPrivate":true,"subId":"S232485002"},{"speciesCode":"combuz1","comName":"Common Buzzard","sciName":"Buteo buteo","locId":"L44022237","locName":"70B Noordeinde, Landsmeer, Noord-Holland, NL (52,44, 4,913)","obsDt":"2025-05-03 19:23","howMany":1,"lat":52.4398104,"lng":4.9127497,"obsValid":true,"obsReviewed":false,"locationPrivate":true,"subId":"S232580740"},{"speciesCode":"morepo2","comName":"Morepork","sciName":"Ninox novaeseelandiae","locId":"L17888818","locName":"V Rd","obsDt":"2025-05-03 23:47","howMany":1,"lat":-36.8060896,"lng":174.7105935,"obsValid":true,"obsReviewed":false,"locationPrivate":true,"subId":"S232373162"},{"speciesCode":"blkvul","comName":"Black Vulture","sciName":"Coragyps atratus","locId":"L44019941","locName":"NIC-39, Granada, NI (11.976, -85.942)","obsDt":"2025-05-03 10:59","howMany":5,"lat":11.9764926,"lng":-85.9419708,"obsValid":true,"obsReviewed":false,"locationPrivate":true,"subId":"S232570688"},{"speciesCode":"categr1","comName":"Western Cattle-Egret","sciName":"Ardea ibis","locId":"L16617097","locName":"Tarkwa Bay","obsDt":"2025-05-03 08:17","howMany":5,"lat":6.3955905,"lng":3.3899753,"obsValid":true,"obsReviewed":false,"locationPrivate":false,"subId":"S232386351"},{"speciesCode":"brnnod","comName":"Brown Noddy","sciName":"Anous stolidus","locId":"L43876727","locName":"Alofi","obsDt":"2025-05-01 10:21","howMany":1,"lat":-19.041971,"lng":-169.91683,"obsValid":true,"obsReviewed":false,"locationPrivate":true,"subId":"S231811226"},{"speciesCode":"auskes1","comName":"Nankeen Kestrel","sciName":"Falco cenchroides","locId":"L4054500","locName":"Cockpit Waterfall Reserve","obsDt":"2025-04-29 17:21","howMany":1,"lat":-29.0214,"lng":167.9672,"obsValid":true,"obsReviewed":false,"locationPrivate":false,"subId":"S230701555"},{"speciesCode":"micmyz1","comName":"Micronesian Myzomela","sciName":"Myzomela rubratra","locId":"L28727543","locName":"Governor's Office, Capitol Hill","obsDt":"2025-05-03 06:45","howMany":1,"lat":15.2126524,"lng":145.7551228,"obsValid":true,"obsReviewed":false,"locationPrivate":true,"subId":"S232215675"},{"speciesCode":"barswa","comName":"Barn Swallow","sciName":"Hirundo rustica","locId":"L44002790","locName":"R1201, Centar Zhupa MK-Southwest (41.4893,20.5115)","obsDt":"2025-05-03 13:52","howMany":10,"lat":41.489293,"lng":20.511513,"obsValid":true,"obsReviewed":false,"locationPrivate":true,"subId":"S232490810"},{"speciesCode":"taibeg1","comName":"Taiga Bean-Goose","sciName":"Anser fabalis","locId":"L44023649","locName":"1481 Polmakveien, Finnmark, NO (70,068, 28,034)","obsDt":"2025-05-03 19:38","howMany":7,"lat":70.0681807,"lng":28.0344469,"obsValid":true,"obsReviewed":false,"locationPrivate":true,"subId":"S232587419"},{"speciesCode":"barswa","comName":"Barn Swallow","sciName":"Hirundo rustica","locId":"L12971691","locName":"Crowne Plaza Duqm","obsDt":"2025-05-03 16:45","howMany":2,"lat":19.568834,"lng":57.7027063,"obsValid":true,"obsReviewed":false,"locationPrivate":false,"subId":"S232428008"},{"speciesCode":"asikoe2","comName":"Asian Koel","sciName":"Eudynamys scolopaceus","locId":"L28929950","locName":"Haji Murad Jaffer, Malir, Karachi","obsDt":"2025-05-03 17:38","howMany":2,"lat":24.8769609,"lng":67.214005,"obsValid":true,"obsReviewed":false,"locationPrivate":true,"subId":"S232435509"},{"speciesCode":"mickin4","comName":"Palau Kingfisher","sciName":"Todiramphus pelewensis","locId":"L3859126","locName":"2nd Bench Lake Ngardok","obsDt":"2025-05-01 15:05","howMany":1,"lat":7.5130034,"lng":134.6044212,"obsValid":true,"obsReviewed":false,"locationPrivate":false,"subId":"S231473057"},{"speciesCode":"blackc1","comName":"Eurasian Blackcap","sciName":"Sylvia atricapilla","locId":"L38557990","locName":"שביל ביטחון תקוע","obsDt":"2025-05-03 18:34","howMany":3,"lat":31.6569334,"lng":35.2264626,"obsValid":true,"obsReviewed":false,"locationPrivate":true,"subId":"S232584489"},{"speciesCode":"linwoo1","comName":"Lineated Woodpecker","sciName":"Dryocopus lineatus","locId":"L7731690","locName":"Gamboa--Ammunition storage facility loop","obsDt":"2025-05-03 12:12","howMany":1,"lat":9.1280856,"lng":-79.712255,"obsValid":true,"obsReviewed":false,"locationPrivate":false,"subId":"S232593129"},{"speciesCode":"blakit1","comName":"Black Kite","sciName":"Milvus migrans","locId":"L25913112","locName":"Highlands Highway, Goroka, Eastern Highlands Province, PNG","obsDt":"2025-04-29 20:45","howMany":12,"lat":-6.1808449,"lng":145.41422,"obsValid":true,"obsReviewed":false,"locationPrivate":true,"subId":"S230783059"},{"speciesCode":"bufpar","comName":"Turquoise-fronted Amazon","sciName":"Amazona aestiva","locId":"L28710964","locName":"Habitalis Sajonia","obsDt":"2025-05-03 08:40","howMany":2,"lat":-25.2894919,"lng":-57.6597637,"obsValid":true,"obsReviewed":false,"locationPrivate":true,"subId":"S232371646"},{"speciesCode":"bktflo1","comName":"Black-throated Flowerpiercer","sciName":"Diglossa brunneiventris","locId":"L44023565","locName":"Auto selected -13.44903, -71.77067","obsDt":"2025-05-03 12:44","howMany":1,"lat":-13.449035,"lng":-71.770669,"obsValid":true,"obsReviewed":false,"locationPrivate":true,"subId":"S232594023"},{"speciesCode":"asikoe2","comName":"Asian Koel","sciName":"Eudynamys scolopaceus","locId":"L1479598","locName":"Subic Bay--Nabasan Trail","obsDt":"2025-05-03 18:29","howMany":1,"lat":14.7657025,"lng":120.2771614,"obsValid":true,"obsReviewed":false,"locationPrivate":false,"subId":"S232389377"},{"speciesCode":"blackc1","comName":"Eurasian Blackcap","sciName":"Sylvia atricapilla","locId":"L30154491","locName":"Gostynin-Włocławek Landscape Park--Lubiechowskie Lake (Jezioro Lubiechowskie)","obsDt":"2025-05-03 19:43","howMany":1,"lat":52.547432,"lng":19.249074,"obsValid":true,"obsReviewed":false,"locationPrivate":false,"subId":"S232589989"},{"speciesCode":"eurcoo","comName":"Eurasian Coot","sciName":"Fulica atra","locId":"L10131770","locName":"Parque Urbano Da Várzea","obsDt":"2025-05-03 18:34","howMany":5,"lat":38.5365209,"lng":-8.8874577,"obsValid":true,"obsReviewed":false,"locationPrivate":false,"subId":"S232584899"},{"speciesCode":"banana","comName":"Bananaquit","sciName":"Coereba flaveola","locId":"L323802","locName":"Bosque Nacional El Yunque--Portal del Yunque","obsDt":"2025-05-03 13:16","howMany":10,"lat":18.3392677,"lng":-65.7613605,"obsValid":true,"obsReviewed":false,"locationPrivate":false,"subId":"S232576885"},{"speciesCode":"barswa","comName":"Barn Swallow","sciName":"Hirundo rustica","locId":"L18487002","locName":"Marsh and ponds outside Irkhaya Farm, western section","obsDt":"2025-05-03 06:40","howMany":10,"lat":25.012358,"lng":51.158433,"obsValid":true,"obsReviewed":false,"locationPrivate":true,"subId":"S232260321"},{"speciesCode":"maswhe2","comName":"Reunion Gray White-eye","sciName":"Zosterops borbonicus","locId":"L43965179","locName":"Piton Partage, RE","obsDt":"2025-05-03 11:13","howMany":7,"lat":-21.2189184,"lng":55.7032273,"obsValid":true,"obsReviewed":false,"locationPrivate":true,"subId":"S232293326"},{"speciesCode":"commoo3","comName":"Eurasian Moorhen","sciName":"Gallinula chloropus","locId":"L42830795","locName":"MG 2","obsDt":"2025-05-03 20:41","howMany":1,"lat":44.819431,"lng":24.8289517,"obsValid":true,"obsReviewed":false,"locationPrivate":true,"subId":"S232592231"},{"speciesCode":"bkhgul","comName":"Black-headed Gull","sciName":"Chroicocephalus ridibundus","locId":"L30368430","locName":"87 улица Ленина, Николо-Березовка, Республика Башкортостан, RU (56,124, 54,153)","obsDt":"2025-05-03 21:19","howMany":1,"lat":56.1244289,"lng":54.1530832,"obsValid":true,"obsReviewed":false,"locationPrivate":true,"subId":"S232548270"},{"speciesCode":"afpfly1","comName":"African Paradise-Flycatcher","sciName":"Terpsiphone viridis","locId":"L41153858","locName":"Holy Trail, Western Province, RW (-2.489, 28.931)","obsDt":"2025-05-03 12:32","howMany":2,"lat":-2.4888418,"lng":28.9310422,"obsValid":true,"obsReviewed":false,"locationPrivate":true,"subId":"S232357404"},{"speciesCode":"amekes","comName":"American Kestrel","sciName":"Falco sparverius","locId":"L2546642","locName":"Ile Fourchue","obsDt":"2025-05-02 16:53","howMany":2,"lat":17.95764,"lng":-62.90258,"obsValid":true,"obsReviewed":false,"locationPrivate":false,"subId":"S232402437"},{"speciesCode":"grykin","comName":"Gray Kingbird","sciName":"Tyrannus dominicensis","locId":"L38961298","locName":"73 Buckley's Development","obsDt":"2025-04-29 02:14","howMany":1,"lat":17.3027664,"lng":-62.7374452,"obsValid":true,"obsReviewed":false,"locationPrivate":true,"subId":"S230699931"},{"speciesCode":"bkfgra","comName":"Black-faced Grassquit","sciName":"Melanospiza bicolor","locId":"L43945455","locName":"Bois d'Inde, Soufrière","obsDt":"2025-05-02 17:40","howMany":2,"lat":13.8337265,"lng":-61.0348272,"obsValid":true,"obsReviewed":false,"locationPrivate":true,"subId":"S232185863"},{"speciesCode":"bkfgra","comName":"Black-faced Grassquit","sciName":"Melanospiza bicolor","locId":"L43828134","locName":"Anse Marcel area","obsDt":"2025-05-02 07:41","howMany":2,"lat":18.113102,"lng":-63.040778,"obsValid":true,"obsReviewed":false,"locationPrivate":true,"subId":"S232213816"},{"speciesCode":"ambduc","comName":"American Black Duck","sciName":"Anas rubripes","locId":"L13985659","locName":"pointe blanche","obsDt":"2025-05-03 08:00","howMany":3,"lat":46.7566925,"lng":-56.1760705,"obsValid":true,"obsReviewed":false,"locationPrivate":false,"subId":"S232538459"},{"speciesCode":"blutit","comName":"Eurasian Blue Tit","sciName":"Cyanistes caeruleus","locId":"L44019925","locName":"186 Strada Quinta Gualdaria, SM (43,933, 12,48)","obsDt":"2025-05-03 18:57","howMany":2,"lat":43.9325478,"lng":12.4796578,"obsValid":true,"obsReviewed":false,"locationPrivate":true,"subId":"S232570620"},{"speciesCode":"afghor1","comName":"African Gray Hornbill","sciName":"Lophoceros nasutus","locId":"L41004415","locName":"Wadi Al Ghina","obsDt":"2025-05-03 11:27","howMany":1,"lat":18.0137462,"lng":42.377479,"obsValid":true,"obsReviewed":false,"locationPrivate":true,"subId":"S232308582"},{"speciesCode":"helgui","comName":"Helmeted Guineafowl","sciName":"Numida meleagris","locId":"L6775058","locName":"PN du Niokolo-Koba--RN7 entre Dar Salam et Niokolo-Koba","obsDt":"2025-05-03 09:44","howMany":4,"lat":13.169,"lng":-12.964,"obsValid":true,"obsReviewed":false,"locationPrivate":false,"subId":"S232320844"},{"speciesCode":"graher1","comName":"Gray Heron","sciName":"Ardea cinerea","locId":"L3627002","locName":"Sremski Karlovci","obsDt":"2025-05-03 17:23","howMany":2,"lat":45.202149,"lng":19.9339521,"obsValid":true,"obsReviewed":false,"locationPrivate":false,"subId":"S232508765"},{"speciesCode":"commyn","comName":"Common Myna","sciName":"Acridotheres tristis","locId":"L9501169","locName":"La Modestie Guest House","obsDt":"2025-05-02 15:09","howMany":5,"lat":-4.3225758,"lng":55.7021427,"obsValid":true,"obsReviewed":false,"locationPrivate":false,"subId":"S232255548","exoticCategory":"N"},{"speciesCode":"latnig2","comName":"Large-tailed Nightjar","sciName":"Caprimulgus macrurus","locId":"L22798475","locName":"Nanyang View Hill","obsDt":"2025-05-03 19:05","howMany":1,"lat":1.351971,"lng":103.687862,"obsValid":true,"obsReviewed":false,"locationPrivate":true,"subId":"S232382186"},{"speciesCode":"bkfgra","comName":"Black-faced Grassquit","sciName":"Melanospiza bicolor","locId":"L43950196","locName":"Airport Road SX","obsDt":"2025-05-02 09:50","howMany":2,"lat":18.042657,"lng":-63.109245,"obsValid":true,"obsReviewed":false,"locationPrivate":true,"subId":"S232214080"},{"speciesCode":"eurbla","comName":"Eurasian Blackbird","sciName":"Turdus merula","locId":"L43841425","locName":"Velky Meder , Trnavský kraj, SK (47,855, 17,761)","obsDt":"2025-05-03 18:33","howMany":1,"lat":47.8549404,"lng":17.7611625,"obsValid":true,"obsReviewed":false,"locationPrivate":true,"subId":"S232551461"},{"speciesCode":"duccoc1","comName":"Solomons Corella","sciName":"Cacatua ducorpsii","locId":"L43876720","locName":"Poitete SINU campus","obsDt":"2025-05-02 07:12","howMany":2,"lat":-7.8859733,"lng":157.1307133,"obsValid":true,"obsReviewed":false,"locationPrivate":true,"subId":"S231811191"},{"speciesCode":"wooshr1","comName":"Woodchat Shrike","sciName":"Lanius senator","locId":"L31007555","locName":"Tafalla","obsDt":"2025-04-29 18:00","howMany":1,"lat":-1.6702851,"lng":42.5296038,"obsValid":true,"obsReviewed":false,"locationPrivate":true,"subId":"S230962817"},{"speciesCode":"sptkne1","comName":"Spotted Thick-knee","sciName":"Burhinus capensis","locId":"L28390818","locName":"Painter household","obsDt":"2025-05-03 19:23","howMany":1,"lat":-34.037202,"lng":18.450521,"obsValid":true,"obsReviewed":false,"locationPrivate":true,"subId":"S232577874"},{"speciesCode":"batgod","comName":"Bar-tailed Godwit","sciName":"Limosa lapponica","locId":"L32174353","locName":"월곶포구","obsDt":"2025-05-03 18:42","howMany":20,"lat":37.3875621,"lng":126.7360584,"obsValid":true,"obsReviewed":false,"locationPrivate":true,"subId":"S232326403"},{"speciesCode":"abdsto1","comName":"Abdim's Stork","sciName":"Ciconia abdimii","locId":"L43918724","locName":"Badingilo AP HQ","obsDt":"2025-05-02 17:58","howMany":30,"lat":5.1077955,"lng":31.9043605,"obsValid":true,"obsReviewed":false,"locationPrivate":true,"subId":"S232045708"},{"speciesCode":"corbun1","comName":"Corn Bunting","sciName":"Emberiza calandra","locId":"L11902617","locName":"Casares--Parque eólico","obsDt":"2025-05-03 19:55","howMany":2,"lat":36.393929,"lng":-5.2861518,"obsValid":true,"obsReviewed":false,"locationPrivate":false,"subId":"S232595018"},{"speciesCode":"ashpri1","comName":"Ashy Prinia","sciName":"Prinia socialis","locId":"L11084407","locName":"Home","obsDt":"2025-05-03 17:36","howMany":2,"lat":6.8347567,"lng":79.9911783,"obsValid":true,"obsReviewed":false,"locationPrivate":true,"subId":"S232405885"},{"speciesCode":"amakin1","comName":"Amazon Kingfisher","sciName":"Chloroceryle amazona","locId":"L40028974","locName":"Lakeland","obsDt":"2025-05-03 07:00","howMany":1,"lat":5.7240104,"lng":-55.1894298,"obsValid":true,"obsReviewed":false,"locationPrivate":true,"subId":"S232326432"},{"speciesCode":"bklkit","comName":"Black-legged Kittiwake","sciName":"Rissa tridactyla","locId":"L26870534","locName":"Snatcherpynten","obsDt":"2025-05-03 08:56","howMany":5,"lat":77.5147121,"lng":14.5664998,"obsValid":true,"obsReviewed":false,"locationPrivate":false,"subId":"S232320407"},{"speciesCode":"blackc1","comName":"Eurasian Blackcap","sciName":"Sylvia atricapilla","locId":"L23000107","locName":"Birmensdorf","obsDt":"2025-05-03 19:24","howMany":1,"lat":47.3546562,"lng":8.4438486,"obsValid":true,"obsReviewed":false,"locationPrivate":true,"subId":"S232578541"},{"speciesCode":"banswa","comName":"Bank Swallow","sciName":"Riparia riparia","locId":"L43774042","locName":"Al Kafat dam","obsDt":"2025-04-30 19:34","howMany":1,"lat":35.0332481,"lng":36.9396687,"obsValid":true,"obsReviewed":false,"locationPrivate":true,"subId":"S231238585"},{"speciesCode":"cosowl1","comName":"Collared Scops-Owl","sciName":"Otus lettia","locId":"L3264302","locName":"雲林湖本IBA--湖本生態合作社(Huben IBA--Pitta Café)","obsDt":"2025-05-03 23:56","howMany":1,"lat":23.7263377,"lng":120.6212112,"obsValid":true,"obsReviewed":false,"locationPrivate":false,"subId":"S232530120"},{"speciesCode":"blrwar1","comName":"Blyth's Reed Warbler","sciName":"Acrocephalus dumetorum","locId":"L20414339","locName":"Buzurgzoda","obsDt":"2025-05-03 07:21","howMany":1,"lat":38.6032345,"lng":68.791831,"obsValid":true,"obsReviewed":false,"locationPrivate":true,"subId":"S232263094"},{"speciesCode":"afrpip1","comName":"African Pipit","sciName":"Anthus cinnamomeus","locId":"L43978072","locName":"LMRCP BC8","obsDt":"2025-05-03 18:29","howMany":2,"lat":-2.768724,"lng":36.95542,"obsValid":true,"obsReviewed":false,"locationPrivate":true,"subId":"S232523341"},{"speciesCode":"latnig2","comName":"Large-tailed Nightjar","sciName":"Caprimulgus macrurus","locId":"L3586126","locName":"Phu Khieo Wildlife Sanctuary--Thung Kamang","obsDt":"2025-05-03 19:02","howMany":1,"lat":16.3861316,"lng":101.565699,"obsValid":true,"obsReviewed":false,"locationPrivate":false,"subId":"S232384893"},{"speciesCode":"arafan2","comName":"Supertramp Fantail","sciName":"Rhipidura semicollaris","locId":"L43955947","locName":"Mota Be Lilia, Ainaro Vila  -8.98828, 125.51091","obsDt":"2025-05-03 08:56","howMany":2,"lat":-8.988283,"lng":125.510911,"obsValid":true,"obsReviewed":false,"locationPrivate":true,"subId":"S232245343"},{"speciesCode":"blknod","comName":"Black Noddy","sciName":"Anous minutus","locId":"L43957565","locName":"Swallows Cave and surrounding","obsDt":"2025-05-03 14:31","howMany":10,"lat":-18.682929,"lng":-174.030541,"obsValid":true,"obsReviewed":false,"locationPrivate":true,"subId":"S232253325"},{"speciesCode":"batfal1","comName":"Bat Falcon","sciName":"Falco rufigularis","locId":"L44011110","locName":"Mc Sween Road, Princes Town Regional Corporation, TT","obsDt":"2025-05-03 11:42","howMany":2,"lat":10.2832455,"lng":-61.272366,"obsValid":true,"obsReviewed":false,"locationPrivate":true,"subId":"S232530046"},{"speciesCode":"eutspa","comName":"Eurasian Tree Sparrow","sciName":"Passer montanus","locId":"L44021316","locName":"Rue du Lac Leman, Cité El Khadra TN-Tunis 36.83923, 10.23968","obsDt":"2025-05-03 18:12","howMany":2,"lat":36.839234,"lng":10.239683,"obsValid":true,"obsReviewed":false,"locationPrivate":true,"subId":"S232576717"},{"speciesCode":"comrav","comName":"Common Raven","sciName":"Corvus corax","locId":"L44020611","locName":"Dumlupınar Bulvarı, Eskişehir, TR (39,536, 31,087)","obsDt":"2025-05-03 20:07","howMany":2,"lat":39.5357175,"lng":31.0871361,"obsValid":true,"obsReviewed":false,"locationPrivate":true,"subId":"S232573623"},{"speciesCode":"rudtur","comName":"Ruddy Turnstone","sciName":"Arenaria interpres","locId":"L4211145","locName":"Turtle Cove","obsDt":"2025-05-02 19:17","howMany":6,"lat":21.7847708,"lng":-72.2262615,"obsValid":true,"obsReviewed":false,"locationPrivate":false,"subId":"S232233437"},{"speciesCode":"reedov1","comName":"Red-eyed Dove","sciName":"Streptopelia semitorquata","locId":"L44014588","locName":"Unnamed Road, Eastern Region, UG (1.337, 34.318)","obsDt":"2025-05-03 17:46","howMany":1,"lat":1.33689,"lng":34.31846,"obsValid":true,"obsReviewed":false,"locationPrivate":true,"subId":"S232545815"},{"speciesCode":"barswa","comName":"Barn Swallow","sciName":"Hirundo rustica","locId":"L18414374","locName":"Dubai--Karama Park","obsDt":"2025-05-03 18:20","howMany":13,"lat":25.243373,"lng":55.305404,"obsValid":true,"obsReviewed":false,"locationPrivate":false,"subId":"S232488971"},{"speciesCode":"eucdov","comName":"Eurasian Collared-Dove","sciName":"Streptopelia decaocto","locId":"L43111898","locName":"High Street, Spaxton, England,","obsDt":"2025-05-03 18:54","howMany":1,"lat":51.1234916,"lng":-3.1108599,"obsValid":true,"obsReviewed":false,"locationPrivate":true,"subId":"S232595415"},{"speciesCode":"horpuf","comName":"Horned Puffin","sciName":"Fratercula corniculata","locId":"L44024368","locName":"Oceania Riviera Deck 7 Starboard US (54.001, 173.608)","obsDt":"2025-05-04 04:45","howMany":3,"lat":54.0013116,"lng":173.6082693,"obsValid":true,"obsReviewed":false,"locationPrivate":true,"subId":"S232590486"},{"speciesCode":"brtcur","comName":"Bristle-thighed Curlew","sciName":"Numenius tahitiensis","locId":"L1075497","locName":"Midway Atoll--Water Catchment Area","obsDt":"2025-05-01 06:41","howMany":1,"lat":28.203855,"lng":-177.3833241,"obsValid":true,"obsReviewed":false,"locationPrivate":false,"subId":"S231686006"},{"speciesCode":"amakin1","comName":"Amazon Kingfisher","sciName":"Chloroceryle amazona","locId":"L8967849","locName":"Puente Otegui","obsDt":"2025-05-03 12:00","howMany":1,"lat":-34.3826042,"lng":-55.2349524,"obsValid":true,"obsReviewed":false,"locationPrivate":true,"subId":"S232529086"},{"speciesCode":"desfin2","comName":"Desert Finch","sciName":"Rhodospiza obsoleta","locId":"L43299553","locName":"Бухара, UZ (40,672, 64,781)","obsDt":"2025-05-03 13:16","howMany":2,"lat":40.6723139,"lng":64.7810839,"obsValid":true,"obsReviewed":false,"locationPrivate":true,"subId":"S232302836"},{"speciesCode":"ausgre1","comName":"Australasian Grebe","sciName":"Tachybaptus novaehollandiae","locId":"L1335164","locName":"Lake Lonwolwol","obsDt":"2025-04-30 06:00","howMany":3,"lat":-16.2234206,"lng":167.9350705,"obsValid":true,"obsReviewed":false,"locationPrivate":false,"subId":"S231411028"},{"speciesCode":"comswi","comName":"Common Swift","sciName":"Apus apus","locId":"L2281750","locName":"Gardens of Vatican City","obsDt":"2025-05-02 10:00","howMany":4,"lat":41.9035866,"lng":12.4501437,"obsValid":true,"obsReviewed":false,"locationPrivate":false,"subId":"S231897881"},{"speciesCode":"aplfal","comName":"Aplomado Falcon","sciName":"Falco femoralis","locId":"L31194549","locName":"Avenida Principal Lomas de Prados del Este, Caracas, Miranda, VE (10.436, -66.884)","obsDt":"2025-05-03 13:50","howMany":1,"lat":10.4362955,"lng":-66.8844057,"obsValid":true,"obsReviewed":false,"locationPrivate":true,"subId":"S232592267"},{"speciesCode":"blaeag1","comName":"Black Eagle","sciName":"Ictinaetus malaiensis","locId":"L6611190","locName":"Thon Tha Village","obsDt":"2025-05-03 19:43","howMany":1,"lat":22.829053,"lng":104.950008,"obsValid":true,"obsReviewed":false,"locationPrivate":false,"subId":"S232489204"},{"speciesCode":"grykin","comName":"Gray Kingbird","sciName":"Tyrannus dominicensis","locId":"L43942978","locName":"Fort Burt marina","obsDt":"2025-05-02 14:40","howMany":4,"lat":18.4139,"lng":-64.614891,"obsValid":true,"obsReviewed":false,"locationPrivate":true,"subId":"S232171738"},{"speciesCode":"libher","comName":"Little Blue Heron","sciName":"Egretta caerulea","locId":"L44014039","locName":"Vester Gade Beach, Christiansted, St. Croix, VI (17.748, -64.711)","obsDt":"2025-05-03 11:41","howMany":1,"lat":17.747924,"lng":-64.7109591,"obsValid":true,"obsReviewed":false,"locationPrivate":true,"subId":"S232543390"},{"speciesCode":"grhlar1","comName":"Greater Hoopoe-Lark","sciName":"Alaemon alaudipes","locId":"L43820308","locName":"Auto selected 26.70067, -11.76788","obsDt":"2025-04-29 09:11","howMany":2,"lat":26.700671,"lng":-11.767876,"obsValid":true,"obsReviewed":false,"locationPrivate":true,"subId":"S231495813"},{"speciesCode":"osprey","comName":"Osprey","sciName":"Pandion haliaetus","locId":"L31472398","locName":"Ramada Al Mukalla","obsDt":"2025-05-01 09:15","howMany":1,"lat":14.5416553,"lng":49.1714632,"obsValid":true,"obsReviewed":false,"locationPrivate":true,"subId":"S231552996"},{"speciesCode":"helgui","comName":"Helmeted Guineafowl","sciName":"Numida meleagris","locId":"L16405356","locName":"Chikupi Estates","obsDt":"2025-05-03 17:46","howMany":22,"lat":-15.6191667,"lng":28.1041667,"obsValid":true,"obsReviewed":false,"locationPrivate":true,"subId":"S232541655"},{"speciesCode":"afbowl1","comName":"African Barred Owlet","sciName":"Glaucidium capense","locId":"L27711674","locName":"Chishakwe Safaris","obsDt":"2025-05-03 18:38","howMany":1,"lat":-20.1299786,"lng":32.1022439,"obsValid":true,"obsReviewed":false,"locationPrivate":false,"subId":"S232576294"}],"list_visible":["Common Quail","Barn Swallow","African Palm Swift","White-tailed Tropicbird","Antillean Crested Hummingbird","Lesser Rhea","Bare-eyed Pigeon","Australian Owlet-nightjar","Eurasian Blue Tit","Eurasian Blackbird","Magnificent Frigatebird","Common Myna","Asian Palm Swift","Black-bellied Plover","Canada Goose","White-tailed Hawk","Great Kiskadee","Black Bulbul","Creamy-bellied Thrush","Bearded Woodpecker","Chalk-browed Mockingbird","Blue-eared Kingfisher","Ashy Drongo","Greater Yellowlegs","Eurasian Blackcap","Bananaquit","Anhinga","African Fish-Eagle","Brown-hooded Gull","Brown Boobook","Red Junglefowl","Red-tailed Tropicbird","Black Vulture","European Serin","Shiny Cowbird","Red-backed Shrike","Abdim's Stork","Kalinago Wren","American Kestrel","Abyssinian Thrush","Baird's Flycatcher","Bank Swallow","Altamira Oriole","Common Cuckoo","African Stonechat","Southern Giant-Petrel","Black-legged Kittiwake","Collared Lory","European Robin","Common Swift","Ash-winged Antwren","Brown Noddy","African Harrier-Hawk","Common Nightingale","Common Bulbul","Black Stork","Common Eider","Black-crowned Night Heron","Black Noddy","Boat-billed Flycatcher","Green Woodhoopoe","Bulwer's Petrel","Rufous-tailed Hummingbird","Lesser Cuckoo","Syrian Woodpecker","Common Raven","Alexandrine Parakeet","Large-tailed Nightjar","Western Cattle-Egret","Barred Warbler","Black Woodpecker","Asian Brown Flycatcher","White Wagtail","Demoiselle Crane","Malachite Kingfisher","Southern Bald Ibis","Broad-billed Roller","Common Goldeneye","Asian Koel","Madagascar Martin","Olive-winged Bulbul","Abyssinian Roller","Rock Pigeon","Eurasian Tree Sparrow","Turkey Vulture","Common Chaffinch","Eurasian Wryneck","Audouin's Gull","Asian Golden Weaver","Spotted Owlet","Common Buzzard","Morepork","Nankeen Kestrel","Micronesian Myzomela","Taiga Bean-Goose","Palau Kingfisher","Lineated Woodpecker","Black Kite","Turquoise-fronted Amazon","Black-throated Flowerpiercer","Eurasian Coot","Reunion Gray White-eye","Eurasian Moorhen","Black-headed Gull","African Paradise-Flycatcher","Gray Kingbird","Black-faced Grassquit","American Black Duck","African Gray Hornbill","Helmeted Guineafowl","Gray Heron","Solomons Corella","Woodchat Shrike","Spotted Thick-knee","Bar-tailed Godwit","Corn Bunting","Ashy Prinia","Amazon Kingfisher","Collared Scops-Owl","Blyth's Reed Warbler","African Pipit","Supertramp Fantail","Bat Falcon","Ruddy Turnstone","Red-eyed Dove","Eurasian Collared-Dove","Horned Puffin","Bristle-thighed Curlew","Desert Finch","Australasian Grebe","Aplomado Falcon","Black Eagle","Little Blue Heron","Greater Hoopoe-Lark","Osprey","African Barred Owlet"]},"__N_SSG":true}